[
  {
    "id": "p_hn_1",
    "name": "Hồ Hoàn Kiếm",
    "destination": "Hà Nội",
    "lat": 21.0285,
    "lng": 105.8542,
    "tags": ["hồ", "check-in", "lịch sử"],
    "avg_cost": 0
  },
  {
    "id": "p_hn_2",
    "name": "Văn Miếu Quốc Tử Giám",
    "destination": "Hà Nội",
    "lat": 21.0277,
    "lng": 105.8355,
    "tags": ["văn hóa", "lịch sử", "di tích"],
    "avg_cost": 30000
  },
  {
    "id": "p_hn_3",
    "name": "Lăng Bác",
    "destination": "Hà Nội",
    "lat": 21.0368,
    "lng": 105.8345,
    "tags": ["lịch sử", "di tích", "văn hóa"],
    "avg_cost": 0
  },
  {
    "id": "p_hn_4",
    "name": "Phố cổ Hà Nội",
    "destination": "Hà Nội",
    "lat": 21.0333,
    "lng": 105.8500,
    "tags": ["phố cổ", "check-in", "mua sắm"],
    "avg_cost": 50000
  },
  {
    "id": "p_hn_5",
    "name": "Chùa Một Cột",
    "destination": "Hà Nội",
    "lat": 21.0352,
    "lng": 105.8338,
    "tags": ["chùa", "lịch sử", "văn hóa"],
    "avg_cost": 0
  },
  {
    "id": "p_hcm_1",
    "name": "Nhà thờ Đức Bà",
    "destination": "Hồ Chí Minh",
    "lat": 10.7797,
    "lng": 106.6990,
    "tags": ["kiến trúc", "check-in", "lịch sử"],
    "avg_cost": 0
  },
  {
    "id": "p_hcm_2",
    "name": "Bưu điện Trung tâm",
    "destination": "Hồ Chí Minh",
    "lat": 10.7799,
    "lng": 106.6997,
    "tags": ["kiến trúc", "check-in", "lịch sử"],
    "avg_cost": 0
  },
  {
    "id": "p_hcm_3",
    "name": "Dinh Độc Lập",
    "destination": "Hồ Chí Minh",
    "lat": 10.7769,
    "lng": 106.6955,
    "tags": ["lịch sử", "di tích", "văn hóa"],
    "avg_cost": 40000
  },
  {
    "id": "p_hcm_4",
    "name": "Chợ Bến Thành",
    "destination": "Hồ Chí Minh",
    "lat": 10.7720,
    "lng": 106.6981,
    "tags": ["mua sắm", "ẩm thực", "văn hóa"],
    "avg_cost": 100000
  },
  {
    "id": "p_hcm_5",
    "name": "Phố đi bộ Nguyễn Huệ",
    "destination": "Hồ Chí Minh",
    "lat": 10.7743,
    "lng": 106.7011,
    "tags": ["check-in", "giải trí", "phố đi bộ"],
    "avg_cost": 50000
  },
  {
    "id": "p_dn_1",
    "name": "Bãi biển Mỹ Khê",
    "destination": "Đà Nẵng",
    "lat": 16.0544,
    "lng": 108.2425,
    "tags": ["biển", "check-in", "thư giãn"],
    "avg_cost": 50000
  },
  {
    "id": "p_dn_2",
    "name": "Cầu Rồng",
    "destination": "Đà Nẵng",
    "lat": 16.0608,
    "lng": 108.2270,
    "tags": ["check-in", "landmark", "đêm"],
    "avg_cost": 0
  },
  {
    "id": "p_dn_3",
    "name": "Bà Nà Hills",
    "destination": "Đà Nẵng",
    "lat": 15.9959,
    "lng": 107.9953,
    "tags": ["núi", "check-in", "cáp treo"],
    "avg_cost": 750000
  },
  {
    "id": "p_dn_4",
    "name": "Ngũ Hành Sơn",
    "destination": "Đà Nẵng",
    "lat": 16.0042,
    "lng": 108.2625,
    "tags": ["núi", "chùa", "văn hóa"],
    "avg_cost": 40000
  },
  {
    "id": "p_dn_5",
    "name": "Bán đảo Sơn Trà",
    "destination": "Đà Nẵng",
    "lat": 16.1089,
    "lng": 108.2700,
    "tags": ["biển", "núi", "thiên nhiên"],
    "avg_cost": 0
  }
]
